{
  "1": {
    "type": "1",
    "lat": 55.759505,
    "lng": 37.642788,
    "name": "Yahmur Space",
    "text": "Оздоровительный центр, ретритный центр, студия йоги",
    "photo": "1",
    "address": "ул. Покровка, 9, стр. 2"
  },
  "2": {
    "type": "4",
    "lat": 55.759389,
    "lng": 37.643596,
    "name": "Я люблю читать",
    "text": "Книжный магазин",
    "photo": "2",
    "address": "ул. Покровка, 11"
  },
  "3": {
    "type": "2",
    "lat": 55.758918,
    "lng": 37.637998,
    "name": "Памятник Фёдору Тютчеву",
    "text": "Памятник, мемориал",
    "photo": "3",
    "address": "Армянский пер., 11"
  },
  "4": {
    "type": "4",
    "lat": 55.757852,
    "lng": 37.639744,
    "name": "Чай108",
    "text": "Магазин чая",
    "photo": "4",
    "address": "ул. Покровка, 2/1с2"
  },
  "5": {
    "type": "2",
    "lat": 55.758356,
    "lng": 37.643492,
    "name": "Городская усадьба А.И. Онучина - Д.Е. Тверитинова - Г.А. Тембоза",
    "text": "Достопримечательность",
    "photo": "5",
    "address": "Колпачный пер., 3, стр. 2"
  },
  "6": {
    "type": "1",
    "lat": 55.758675,
    "lng": 37.636098,
    "name": "Клаустрофобия",
    "text": "Квесты, развлекательный центр, клуб досуга",
    "photo": "6",
    "address": "ул. Маросейка, 13, стр. 3"
  },
  "7": {
    "type": "1",
    "lat": 55.758158,
    "lng": 37.636109,
    "name": "Az Art",
    "text": "Музей",
    "photo": "7",
    "address": "ул. Маросейка, 11/4с1"
  },
  "8": {
    "type": "3",
    "lat": 55.758482,
    "lng": 37.642880,
    "name": "Ирониум",
    "text": "Гостиница",
    "photo": "8",
    "address": "Колпачный пер., 4, стр. 4"
  },
  "9": {
    "type": "2",
    "lat": 55.758240,
    "lng": 37.646471,
    "name": "Амфитеатр",
    "text": "Достопримечательность",
    "photo": "9",
    "address": "Хохловская площадь"
  },
  "10": {
    "type": "4",
    "lat": 55.759836,
    "lng": 37.641059,
    "name": "Lighthouse Film Lab",
    "text": "Фотоуслуги",
    "photo": "10",
    "address": "Потаповский пер., 12"
  }
}
